{
"type": "FeatureCollection",
"name": "Restauarant_Vietnamien",
"crs": { "type": "name", "properties": { "name": "urn:ogc:def:crs:OGC:1.3:CRS84" } },
"features": [
{ "type": "Feature", "properties": { "Name": "Ô BONZAÏ", "Commune": "Cocody", "Quartier": "Camp milaire Akouedo", "nom": null, "x": null, "y": null }, "geometry": { "type": "Point", "coordinates": [ -3.9339656, 5.3741183, 0.0 ] } },
{ "type": "Feature", "properties": { "Name": "Restaurants MEKONG", "Commune": "Marcory", "Quartier": "Residentiel", "nom": null, "x": null, "y": null }, "geometry": { "type": "Point", "coordinates": [ -3.9918053, 5.3103713, 0.0 ] } },
{ "type": "Feature", "properties": { "Name": "Restaurant Pho Hang", "Commune": "Marcory", "Quartier": "Bietri", "nom": null, "x": null, "y": null }, "geometry": { "type": "Point", "coordinates": [ -3.978967, 5.2770415, 0.0 ] } },
{ "type": "Feature", "properties": { "Name": "Restaurant STAR Vietnamien", "Commune": "Cocody", "Quartier": "Deux plateau,boulvard latrille", "nom": null, "x": null, "y": null }, "geometry": { "type": "Point", "coordinates": [ -3.9975903, 5.3667942, 0.0 ] } },
{ "type": "Feature", "properties": { "Name": "Super Maquis Vietnamien", "Commune": "Cocody", "Quartier": "Deux plateau,carrefou Duncan", "nom": null, "x": null, "y": null }, "geometry": { "type": "Point", "coordinates": [ -3.9982069, 5.3737055, 0.0 ] } },
{ "type": "Feature", "properties": { "Name": "Hao Nem Vietnamienne", "Commune": "Marcory", "Quartier": "Bietri,Avenue Vanie bi tra", "nom": null, "x": null, "y": null }, "geometry": { "type": "Point", "coordinates": [ -3.9809882, 5.282751, 0.0 ] } },
{ "type": "Feature", "properties": { "Name": "Maquis vietnamien chez Nam-Phuong", "Commune": "Port Bouet", "Quartier": "Rue du marche", "nom": null, "x": null, "y": null }, "geometry": { "type": "Point", "coordinates": [ -3.9617116, 5.2561245, 0.0 ] } },
{ "type": "Feature", "properties": { "Name": "25 rue du canal, abidjan", "Commune": "Marcory", "Quartier": "Bietri,Avenue Vanie bi tra", "nom": null, "x": null, "y": null }, "geometry": { "type": "Point", "coordinates": [ -3.9698437, 5.2763042, 0.0 ] } },
{ "type": "Feature", "properties": { "Name": "La Baie d'Along", "Commune": "Cocody", "Quartier": "Rue des jardins", "nom": null, "x": null, "y": null }, "geometry": { "type": "Point", "coordinates": [ -3.9898378, 5.366758, 0.0 ] } },
{ "type": "Feature", "properties": { "Name": "NEM CHEZ WILLIAM", "Commune": "Cocody", "Quartier": "Lycee Mermoz", "nom": null, "x": null, "y": null }, "geometry": { "type": "Point", "coordinates": [ -3.9988091, 5.3391788, 0.0 ] } },
{ "type": "Feature", "properties": { "Name": "Chez Léon, maquis vietnamien", "Commune": "Marcory", "Quartier": "Zone 4a", "nom": null, "x": null, "y": null }, "geometry": { "type": "Point", "coordinates": [ -3.990211, 5.2955569, 0.0 ] } },
{ "type": "Feature", "properties": { "Name": "restaurant  vietnamien  pacifique", "Commune": "Cocody", "Quartier": "Cite des Arts", "nom": "restaurant  vietnamien  pacifique", "x": -3.998143, "y": 5.345115 }, "geometry": { "type": "Point", "coordinates": [ -3.998143, 5.345115, 0.0 ] } },
{ "type": "Feature", "properties": { "Name": "restaurant  vietnamien tuan", "Commune": "Plateau", "Quartier": "Plateau centre", "nom": "restaurant  vietnamien tuan", "x": -4.014796, "y": 5.323369 }, "geometry": { "type": "Point", "coordinates": [ -4.014796, 5.323369, 0.0 ] } },
{ "type": "Feature", "properties": { "Name": "restaurant nuit de saigon", "Commune": "Cocody", "Quartier": "Deux plateau", "nom": "restaurant nuit de saigon", "x": -3.990498, "y": 5.371434 }, "geometry": { "type": "Point", "coordinates": [ -3.990498, 5.371434, 0.0 ] } },
{ "type": "Feature", "properties": { "Name": "restaurant viet pho", "Commune": "Cocody", "Quartier": "Deux plateau", "nom": "restaurant viet pho", "x": -3.989446, "y": 5.366537 }, "geometry": { "type": "Point", "coordinates": [ -3.989446, 5.366537, 0.0 ] } },
{ "type": "Feature", "properties": { "Name": "restaurant new bassac", "Commune": "Cocody", "Quartier": "Deux plateau", "nom": "restaurant new bassac", "x": -3.989567, "y": 5.364775 }, "geometry": { "type": "Point", "coordinates": [ -3.989567, 5.364775, 0.0 ] } },
{ "type": "Feature", "properties": { "Name": "restaurant nem saigon", "Commune": "Cocody", "Quartier": "Deux plateau", "nom": "restaurant nem saigon", "x": -3.989576, "y": 5.365034 }, "geometry": { "type": "Point", "coordinates": [ -3.989576, 5.365034, 0.0 ] } },
{ "type": "Feature", "properties": { "Name": "restaurant les nem ries", "Commune": "Cocody", "Quartier": "Aghien", "nom": "restaurant les nem ries", "x": -3.999325, "y": 5.387392 }, "geometry": { "type": "Point", "coordinates": [ -3.999325, 5.387392, 0.0 ] } },
{ "type": "Feature", "properties": { "Name": "restaurant saveur asisatique", "Commune": "Cocody", "Quartier": "Bonoumin", "nom": "restaurant saveurs asisatiques", "x": -3.979791, "y": 5.368588 }, "geometry": { "type": "Point", "coordinates": [ -3.979791, 5.368588, 0.0 ] } },
{ "type": "Feature", "properties": { "Name": "restaurant cafe de touba", "Commune": "Yopougon", "Quartier": "Carrefour Bel Air", "nom": "restaurant cafe de touba", "x": -4.065369, "y": 5.346446 }, "geometry": { "type": "Point", "coordinates": [ -4.065369, 5.346446, 0.0 ] } },
{ "type": "Feature", "properties": { "Name": "restaurant les delices du viet nam", "Commune": "Cocody", "Quartier": "Lycee Blaise Pascal", "nom": "restaurant les delices du viet nam", "x": -3.954163, "y": 5.349915 }, "geometry": { "type": "Point", "coordinates": [ -3.954163, 5.349915, 0.0 ] } },
{ "type": "Feature", "properties": { "Name": "resto Rita-Lv_Rita vietnam", "Commune": "Cocody", "Quartier": "Bonoumin", "nom": "resto Rita-Lv/Rita vietnam", "x": -3.979491, "y": 5.36526 }, "geometry": { "type": "Point", "coordinates": [ -3.979491, 5.36526, 0.0 ] } },
{ "type": "Feature", "properties": { "Name": "restaurant vietnamesa chez kevin", "Commune": "Cocody", "Quartier": "Angre Star 10", "nom": "restaurant vietnamesa chez kevin", "x": -3.980136, "y": 5.403355 }, "geometry": { "type": "Point", "coordinates": [ -3.980136, 5.403355, 0.0 ] } },
{ "type": "Feature", "properties": { "Name": "vietnam restaurant", "Commune": "Marcory", "Quartier": "Zone 4", "nom": "vietnam restaurant", "x": -3.978948, "y": 5.286647 }, "geometry": { "type": "Point", "coordinates": [ -3.978948, 5.286647, 0.0 ] } }
]
}
